{"gyms":{"0782a5da46dc4458815ff4ae6fba29ea.11":{"enabled":true,"guard_pokemon_id":164,"gym_id":"0782a5da46dc4458815ff4ae6fba29ea.11","last_modified":1506188027000,"last_scanned":1506188085000,"latitude":59.370168,"longitude":18.063057,"name":"Lappis Square","pokemon":[{"cp_decayed":2316,"deployment_time":1506181064000,"gym_id":"0782a5da46dc4458815ff4ae6fba29ea.11","last_scanned":1506188045000,"pokemon_cp":2873,"pokemon_id":112,"pokemon_name":"Rhydon","trainer_level":32,"trainer_name":"ZeQween"},{"cp_decayed":750,"deployment_time":1506182565000,"gym_id":"0782a5da46dc4458815ff4ae6fba29ea.11","last_scanned":1506188045000,"pokemon_cp":843,"pokemon_id":215,"pokemon_name":"Sneasel","trainer_level":17,"trainer_name":"Ouyangxt"},{"cp_decayed":456,"deployment_time":1506182665000,"gym_id":"0782a5da46dc4458815ff4ae6fba29ea.11","last_scanned":1506188045000,"pokemon_cp":508,"pokemon_id":178,"pokemon_name":"Xatu","trainer_level":15,"trainer_name":"Lidanana"},{"cp_decayed":964,"deployment_time":1506184398000,"gym_id":"0782a5da46dc4458815ff4ae6fba29ea.11","last_scanned":1506188045000,"pokemon_cp":1077,"pokemon_id":127,"pokemon_name":"Pinsir","trainer_level":20,"trainer_name":"Seiriah"},{"cp_decayed":993,"deployment_time":1506188027000,"gym_id":"0782a5da46dc4458815ff4ae6fba29ea.11","last_scanned":1506188045000,"pokemon_cp":1080,"pokemon_id":164,"pokemon_name":"Noctowl","trainer_level":23,"trainer_name":"sati8335"}],"raid":{"cp":21768,"end":1506181056000,"gym_id":"0782a5da46dc4458815ff4ae6fba29ea.11","last_scanned":1506181040000,"level":4,"move_1":230,"move_2":40,"pokemon_id":131,"pokemon_name":"Lapras","pokemon_types":[{"color":"#6890f0","type":"Water"},{"color":"#98d8d8","type":"Ice"}],"spawn":1506173856000,"start":1506177456000},"slots_available":1,"team_id":1,"total_cp":5475},"0eb4dde0cfab43d2814279b720e58f80.16":{"enabled":true,"guard_pokemon_id":114,"gym_id":"0eb4dde0cfab43d2814279b720e58f80.16","last_modified":1506186405000,"last_scanned":1506188090000,"latitude":59.366712,"longitude":18.055464,"name":"Frescati Info","pokemon":[{"cp_decayed":1398,"deployment_time":1506151164000,"gym_id":"0eb4dde0cfab43d2814279b720e58f80.16","last_scanned":1506186410000,"pokemon_cp":1530,"pokemon_id":99,"pokemon_name":"Kingler","trainer_level":26,"trainer_name":"ArryynStark"},{"cp_decayed":854,"deployment_time":1506151176000,"gym_id":"0eb4dde0cfab43d2814279b720e58f80.16","last_scanned":1506186410000,"pokemon_cp":2501,"pokemon_id":134,"pokemon_name":"Vaporeon","trainer_level":35,"trainer_name":"Andriichii"},{"cp_decayed":1624,"deployment_time":1506158654000,"gym_id":"0eb4dde0cfab43d2814279b720e58f80.16","last_scanned":1506186410000,"pokemon_cp":1986,"pokemon_id":94,"pokemon_name":"Gengar","trainer_level":26,"trainer_name":"Emerikono"},{"cp_decayed":1918,"deployment_time":1506164837000,"gym_id":"0eb4dde0cfab43d2814279b720e58f80.16","last_scanned":1506186410000,"pokemon_cp":2994,"pokemon_id":130,"pokemon_name":"Gyarados","trainer_level":36,"trainer_name":"Antorina1"},{"cp_decayed":1709,"deployment_time":1506164844000,"gym_id":"0eb4dde0cfab43d2814279b720e58f80.16","last_scanned":1506186410000,"pokemon_cp":2401,"pokemon_id":217,"pokemon_name":"Ursaring","trainer_level":34,"trainer_name":"1gunvald"},{"cp_decayed":949,"deployment_time":1506165895000,"gym_id":"0eb4dde0cfab43d2814279b720e58f80.16","last_scanned":1506186410000,"pokemon_cp":1156,"pokemon_id":114,"pokemon_name":"Tangela","trainer_level":21,"trainer_name":"yanglingyuan"}],"raid":{"cp":38628,"end":1506183065000,"gym_id":"0eb4dde0cfab43d2814279b720e58f80.16","last_scanned":1506183065000,"level":5,"move_1":240,"move_2":24,"pokemon_id":244,"pokemon_name":"Entei","pokemon_types":[{"color":"#f08030","type":"Fire"}],"spawn":1506175865000,"start":1506179465000},"slots_available":0,"team_id":1,"total_cp":7984},"3bbaad8c8f1d42a8b8f4770d2a314003.16":{"enabled":true,"guard_pokemon_id":6,"gym_id":"3bbaad8c8f1d42a8b8f4770d2a314003.16","last_modified":1506181543000,"last_scanned":1506188090000,"latitude":59.364123,"longitude":18.051304,"name":"Lilla Frescati Kolonif\u00f6rening","pokemon":[{"cp_decayed":2291,"deployment_time":1506181346000,"gym_id":"3bbaad8c8f1d42a8b8f4770d2a314003.16","last_scanned":1506181567000,"pokemon_cp":2339,"pokemon_id":6,"pokemon_name":"Charizard","trainer_level":32,"trainer_name":"DinoRAWRusRex"}],"raid":{"cp":38628,"end":1506161484000,"gym_id":"3bbaad8c8f1d42a8b8f4770d2a314003.16","last_scanned":1506161459000,"level":5,"move_1":240,"move_2":270,"pokemon_id":244,"pokemon_name":"Entei","pokemon_types":[{"color":"#f08030","type":"Fire"}],"spawn":1506154284000,"start":1506157884000},"slots_available":5,"team_id":1,"total_cp":1867},"52142b74149247a9ac1060049282c63a.16":{"enabled":true,"guard_pokemon_id":117,"gym_id":"52142b74149247a9ac1060049282c63a.16","last_modified":1506187443000,"last_scanned":1506188090000,"latitude":59.3702,"longitude":18.055944,"name":"Ekhagens Bollplan","pokemon":[{"cp_decayed":1010,"deployment_time":1506187443000,"gym_id":"52142b74149247a9ac1060049282c63a.16","last_scanned":1506187464000,"pokemon_cp":1098,"pokemon_id":117,"pokemon_name":"Seadra","trainer_level":23,"trainer_name":"sati8335"}],"raid":{"cp":4375,"end":1506148805000,"gym_id":"52142b74149247a9ac1060049282c63a.16","last_scanned":1506148794000,"level":1,"move_1":215,"move_2":273,"pokemon_id":153,"pokemon_name":"Bayleef","pokemon_types":[{"color":"#78c850","type":"Grass"}],"spawn":1506141605000,"start":1506145205000},"slots_available":5,"team_id":1,"total_cp":1005},"5cd160614377476baffaccf90280d14d.11":{"enabled":true,"guard_pokemon_id":242,"gym_id":"5cd160614377476baffaccf90280d14d.11","last_modified":1506181988000,"last_scanned":1506188085000,"latitude":59.365294,"longitude":18.05538,"name":"Stockholm University Metro Station","pokemon":[{"cp_decayed":887,"deployment_time":1506166254000,"gym_id":"5cd160614377476baffaccf90280d14d.11","last_scanned":1506182005000,"pokemon_cp":1843,"pokemon_id":103,"pokemon_name":"Exeggutor","trainer_level":32,"trainer_name":"Fredster1976"},{"cp_decayed":1166,"deployment_time":1506166682000,"gym_id":"5cd160614377476baffaccf90280d14d.11","last_scanned":1506182005000,"pokemon_cp":1601,"pokemon_id":205,"pokemon_name":"Forretress","trainer_level":27,"trainer_name":"GOproninjaAdams"},{"cp_decayed":855,"deployment_time":1506167019000,"gym_id":"5cd160614377476baffaccf90280d14d.11","last_scanned":1506182005000,"pokemon_cp":1255,"pokemon_id":9,"pokemon_name":"Blastoise","trainer_level":21,"trainer_name":"Filippa08GO"},{"cp_decayed":1854,"deployment_time":1506170063000,"gym_id":"5cd160614377476baffaccf90280d14d.11","last_scanned":1506182005000,"pokemon_cp":2316,"pokemon_id":242,"pokemon_name":"Blissey","trainer_level":31,"trainer_name":"zaaxcj"}],"raid":{"cp":5207,"end":1506187368000,"gym_id":"5cd160614377476baffaccf90280d14d.11","last_scanned":1506187360000,"level":1,"move_1":220,"move_2":33,"pokemon_id":159,"pokemon_name":"Croconaw","pokemon_types":[{"color":"#6890f0","type":"Water"}],"spawn":1506180168000,"start":1506183768000},"slots_available":2,"team_id":3,"total_cp":4039},"6163e5bdbdea42b5a75567c802d5663b.16":{"enabled":true,"guard_pokemon_id":125,"gym_id":"6163e5bdbdea42b5a75567c802d5663b.16","last_modified":1506185036000,"last_scanned":1506188085000,"latitude":59.360554,"longitude":18.058071,"name":"Wood Tower","pokemon":[{"cp_decayed":1135,"deployment_time":1506151790000,"gym_id":"6163e5bdbdea42b5a75567c802d5663b.16","last_scanned":1506185044000,"pokemon_cp":1369,"pokemon_id":123,"pokemon_name":"Scyther","trainer_level":26,"trainer_name":"ArryynStark"},{"cp_decayed":1750,"deployment_time":1506151816000,"gym_id":"6163e5bdbdea42b5a75567c802d5663b.16","last_scanned":1506185044000,"pokemon_cp":2769,"pokemon_id":242,"pokemon_name":"Blissey","trainer_level":35,"trainer_name":"Andriichii"},{"cp_decayed":1348,"deployment_time":1506179397000,"gym_id":"6163e5bdbdea42b5a75567c802d5663b.16","last_scanned":1506185044000,"pokemon_cp":1571,"pokemon_id":124,"pokemon_name":"Jynx","trainer_level":32,"trainer_name":"BabySmurfy"},{"cp_decayed":1258,"deployment_time":1506180051000,"gym_id":"6163e5bdbdea42b5a75567c802d5663b.16","last_scanned":1506185044000,"pokemon_cp":1444,"pokemon_id":142,"pokemon_name":"Aerodactyl","trainer_level":33,"trainer_name":"TriplexHE"},{"cp_decayed":1239,"deployment_time":1506185023000,"gym_id":"6163e5bdbdea42b5a75567c802d5663b.16","last_scanned":1506185044000,"pokemon_cp":1239,"pokemon_id":125,"pokemon_name":"Electabuzz","trainer_level":23,"trainer_name":"sati8335"}],"raid":{"cp":13839,"end":1506184182000,"gym_id":"6163e5bdbdea42b5a75567c802d5663b.16","last_scanned":1506184174000,"level":2,"move_1":274,"move_2":116,"pokemon_id":103,"pokemon_name":"Exeggutor","pokemon_types":[{"color":"#78c850","type":"Grass"},{"color":"#f85888","type":"Psychic"}],"spawn":1506176982000,"start":1506180582000},"slots_available":1,"team_id":1,"total_cp":6333},"61af93e37d934b5989b86a7619eed8dd.11":{"enabled":true,"guard_pokemon_id":135,"gym_id":"61af93e37d934b5989b86a7619eed8dd.11","last_modified":1506187010000,"last_scanned":1506188090000,"latitude":59.368736,"longitude":18.053004,"name":"Swedish Museum of Natural History","pokemon":[{"cp_decayed":200,"deployment_time":1506152718000,"gym_id":"61af93e37d934b5989b86a7619eed8dd.11","last_scanned":1506187027000,"pokemon_cp":381,"pokemon_id":20,"pokemon_name":"Raticate","trainer_level":15,"trainer_name":"Fillehson"},{"cp_decayed":890,"deployment_time":1506154953000,"gym_id":"61af93e37d934b5989b86a7619eed8dd.11","last_scanned":1506187027000,"pokemon_cp":2732,"pokemon_id":130,"pokemon_name":"Gyarados","trainer_level":29,"trainer_name":"GustavAxelCissi"},{"cp_decayed":999,"deployment_time":1506163204000,"gym_id":"61af93e37d934b5989b86a7619eed8dd.11","last_scanned":1506187027000,"pokemon_cp":1976,"pokemon_id":242,"pokemon_name":"Blissey","trainer_level":25,"trainer_name":"LeviGrip"},{"cp_decayed":2224,"deployment_time":1506164721000,"gym_id":"61af93e37d934b5989b86a7619eed8dd.11","last_scanned":1506187027000,"pokemon_cp":3128,"pokemon_id":112,"pokemon_name":"Rhydon","trainer_level":36,"trainer_name":"Antorina1"},{"cp_decayed":1692,"deployment_time":1506164763000,"gym_id":"61af93e37d934b5989b86a7619eed8dd.11","last_scanned":1506187027000,"pokemon_cp":2411,"pokemon_id":139,"pokemon_name":"Omastar","trainer_level":34,"trainer_name":"1gunvald"},{"cp_decayed":1202,"deployment_time":1506186805000,"gym_id":"61af93e37d934b5989b86a7619eed8dd.11","last_scanned":1506187027000,"pokemon_cp":1309,"pokemon_id":135,"pokemon_name":"Jolteon","trainer_level":23,"trainer_name":"sati8335"}],"raid":{"cp":24162,"end":1506184179000,"gym_id":"61af93e37d934b5989b86a7619eed8dd.11","last_scanned":1506184174000,"level":4,"move_1":230,"move_2":39,"pokemon_id":9,"pokemon_name":"Blastoise","pokemon_types":[{"color":"#6890f0","type":"Water"}],"spawn":1506176979000,"start":1506180579000},"slots_available":0,"team_id":1,"total_cp":6913},"6dd878c0d987408aa406496815f23937.16":{"enabled":true,"guard_pokemon_id":113,"gym_id":"6dd878c0d987408aa406496815f23937.16","last_modified":1506182616000,"last_scanned":1506188085000,"latitude":59.365059,"longitude":18.058712,"name":"Pelare","pokemon":[{"cp_decayed":1944,"deployment_time":1506174583000,"gym_id":"6dd878c0d987408aa406496815f23937.16","last_scanned":1506182629000,"pokemon_cp":2471,"pokemon_id":59,"pokemon_name":"Arcanine","trainer_level":31,"trainer_name":"Unmbit"},{"cp_decayed":1608,"deployment_time":1506179843000,"gym_id":"6dd878c0d987408aa406496815f23937.16","last_scanned":1506182629000,"pokemon_cp":1827,"pokemon_id":242,"pokemon_name":"Blissey","trainer_level":30,"trainer_name":"Mestaren"},{"cp_decayed":713,"deployment_time":1506180598000,"gym_id":"6dd878c0d987408aa406496815f23937.16","last_scanned":1506182629000,"pokemon_cp":784,"pokemon_id":113,"pokemon_name":"Chansey","trainer_level":33,"trainer_name":"BroKKeLi"}],"raid":{"cp":12390,"end":1506189812000,"gym_id":"6dd878c0d987408aa406496815f23937.16","last_scanned":1506188085000,"level":2,"move_1":205,"move_2":79,"pokemon_id":125,"pokemon_name":"Electabuzz","pokemon_types":[{"color":"#f8d030","type":"Electric"}],"spawn":1506182612000,"start":1506186212000},"slots_available":3,"team_id":3,"total_cp":4265},"abb64e43277540d5bb37a67ad7170ed1.16":{"enabled":true,"guard_pokemon_id":117,"gym_id":"abb64e43277540d5bb37a67ad7170ed1.16","last_modified":1506185801000,"last_scanned":1506188085000,"latitude":59.364992,"longitude":18.060033,"name":"Paviljongen University","pokemon":[{"cp_decayed":1867,"deployment_time":1506180092000,"gym_id":"abb64e43277540d5bb37a67ad7170ed1.16","last_scanned":1506185803000,"pokemon_cp":2128,"pokemon_id":143,"pokemon_name":"Snorlax","trainer_level":33,"trainer_name":"Sunnyliza"},{"cp_decayed":1926,"deployment_time":1506180128000,"gym_id":"abb64e43277540d5bb37a67ad7170ed1.16","last_scanned":1506185803000,"pokemon_cp":2279,"pokemon_id":242,"pokemon_name":"Blissey","trainer_level":32,"trainer_name":"churree"},{"cp_decayed":1220,"deployment_time":1506184530000,"gym_id":"abb64e43277540d5bb37a67ad7170ed1.16","last_scanned":1506185803000,"pokemon_cp":1342,"pokemon_id":127,"pokemon_name":"Pinsir","trainer_level":23,"trainer_name":"tonigaza"},{"cp_decayed":1062,"deployment_time":1506185794000,"gym_id":"abb64e43277540d5bb37a67ad7170ed1.16","last_scanned":1506185803000,"pokemon_cp":1062,"pokemon_id":117,"pokemon_name":"Seadra","trainer_level":23,"trainer_name":"sati8335"}],"raid":{"cp":5207,"end":1506179206000,"gym_id":"abb64e43277540d5bb37a67ad7170ed1.16","last_scanned":1506179200000,"level":1,"move_1":230,"move_2":33,"pokemon_id":159,"pokemon_name":"Croconaw","pokemon_types":[{"color":"#6890f0","type":"Water"}],"spawn":1506172006000,"start":1506175606000},"slots_available":2,"team_id":1,"total_cp":5794},"c0bed78b3cd44204a591116f83c42db0.16":{"enabled":true,"guard_pokemon_id":99,"gym_id":"c0bed78b3cd44204a591116f83c42db0.16","last_modified":1506187809000,"last_scanned":1506188085000,"latitude":59.361244,"longitude":18.053791,"name":"Israel Adolf af Str\u00f6m","pokemon":[{"cp_decayed":2295,"deployment_time":1506173254000,"gym_id":"c0bed78b3cd44204a591116f83c42db0.16","last_scanned":1506187816000,"pokemon_cp":2401,"pokemon_id":112,"pokemon_name":"Rhydon","trainer_level":30,"trainer_name":"Nordljuset"},{"cp_decayed":1399,"deployment_time":1506179203000,"gym_id":"c0bed78b3cd44204a591116f83c42db0.16","last_scanned":1506187816000,"pokemon_cp":1541,"pokemon_id":127,"pokemon_name":"Pinsir","trainer_level":32,"trainer_name":"BabySmurfy"},{"cp_decayed":1439,"deployment_time":1506184085000,"gym_id":"c0bed78b3cd44204a591116f83c42db0.16","last_scanned":1506187816000,"pokemon_cp":1496,"pokemon_id":99,"pokemon_name":"Kingler","trainer_level":23,"trainer_name":"sati8335"}],"raid":{"cp":28485,"end":1506172432000,"gym_id":"c0bed78b3cd44204a591116f83c42db0.16","last_scanned":1506172425000,"level":4,"move_1":255,"move_2":270,"pokemon_id":6,"pokemon_name":"Charizard","pokemon_types":[{"color":"#f08030","type":"Fire"},{"color":"#a890f0","type":"Flying"}],"spawn":1506165232000,"start":1506168832000},"slots_available":3,"team_id":1,"total_cp":5107}},"lastgyms":"true","lastspawns":"true","oNeLat":"59.371183442945714","oNeLng":"18.070231931460967","oSwLat":"59.359691826814874","oSwLng":"18.046735780490508","spawnpoints":[{"appear_time":1495,"disappear_time":3295,"id":"465f9d03b9b","latitude":59.3711471913821,"longitude":18.0618060070456},{"appear_time":486,"disappear_time":2286,"id":"465f9d03b8b","latitude":59.3710206538992,"longitude":18.0613895346281},{"appear_time":2061,"disappear_time":261,"id":"465f9d03c0f","latitude":59.3708941149011,"longitude":18.0609730670082},{"appear_time":2590,"disappear_time":790,"id":"465f9d0faff","latitude":59.361375504218,"longitude":18.0579225862343},{"appear_time":262,"disappear_time":2062,"id":"465f9d0ee07","latitude":59.3610974601122,"longitude":18.0540104072261},{"appear_time":3364,"disappear_time":1564,"id":"465f9d10263","latitude":59.3608973975699,"longitude":18.0619171750086},{"appear_time":1797,"disappear_time":3597,"id":"465f9d0f0a5","latitude":59.3620674277209,"longitude":18.0569870491325},{"appear_time":447,"disappear_time":2247,"id":"465f9d05b83","latitude":59.365870014741,"longitude":18.0577199525591},{"appear_time":1339,"disappear_time":3139,"id":"465f9d04df5","latitude":59.3659188296148,"longitude":18.0632351042498},{"appear_time":3231,"disappear_time":1431,"id":"465f9d08981","latitude":59.3639707674701,"longitude":18.0508297886684},{"appear_time":623,"disappear_time":2423,"id":"465f9d03103","latitude":59.3706889434605,"longitude":18.0650109725195},{"appear_time":790,"disappear_time":2590,"id":"465f9d03459","latitude":59.3693673493295,"longitude":18.0664453190563},{"appear_time":1136,"disappear_time":2936,"id":"465f9d06f33","latitude":59.3677551848097,"longitude":18.0536430520372},{"appear_time":1098,"disappear_time":2898,"id":"465f9d0567f","latitude":59.3638998523973,"longitude":18.0610888143236},{"appear_time":3563,"disappear_time":1763,"id":"465f9d03457","latitude":59.3692832577041,"longitude":18.0663827503013},{"appear_time":374,"disappear_time":2174,"id":"465f9d1b6b3","latitude":59.3666184889371,"longitude":18.0687515437914},{"appear_time":137,"disappear_time":1937,"id":"465f9d03995","latitude":59.3701187898668,"longitude":18.0624915388832},{"appear_time":1329,"disappear_time":3129,"id":"465f9d03997","latitude":59.3701396177951,"longitude":18.0623458629466},{"appear_time":42,"disappear_time":1842,"id":"465f9d05cdb","latitude":59.366541146987,"longitude":18.0569299214912},{"appear_time":1556,"disappear_time":1556,"id":"465f9d06e43","latitude":59.3684679310807,"longitude":18.0525615822943},{"appear_time":2216,"disappear_time":416,"id":"465f9d035dd","latitude":59.3689877906904,"longitude":18.065195879845},{"appear_time":1290,"disappear_time":3090,"id":"465f9d0f8d7","latitude":59.3626593084894,"longitude":18.0600050804259},{"appear_time":1589,"disappear_time":3389,"id":"465f9d07df1","latitude":59.3653311159223,"longitude":18.0471687002372},{"appear_time":740,"disappear_time":2540,"id":"465f9d03f91","latitude":59.3697359927233,"longitude":18.0586612030313},{"appear_time":498,"disappear_time":2298,"id":"465f9d03757","latitude":59.3701828356984,"longitude":18.0633450381753},{"appear_time":891,"disappear_time":2691,"id":"465f9d092e9","latitude":59.3611981364593,"longitude":18.0507021921571},{"appear_time":341,"disappear_time":2141,"id":"465f9d0f825","latitude":59.3630981721582,"longitude":18.058236834831},{"appear_time":1517,"disappear_time":3317,"id":"465f9d0345f","latitude":59.3694514409733,"longitude":18.0665078881575},{"appear_time":1669,"disappear_time":3469,"id":"465f9d05571","latitude":59.3632711482377,"longitude":18.0622325395757},{"appear_time":1438,"disappear_time":3238,"id":"465f9d1015d","latitude":59.3614459309483,"longitude":18.063936401964},{"appear_time":2900,"disappear_time":1100,"id":"465f9d05c6d","latitude":59.3657010101293,"longitude":18.0569497429807},{"appear_time":1651,"disappear_time":3451,"id":"465f9da9fd9","latitude":59.3705203077149,"longitude":18.0479640201446},{"appear_time":1329,"disappear_time":3129,"id":"465f9d05791","latitude":59.3640023689675,"longitude":18.0590703488875},{"appear_time":16,"disappear_time":1816,"id":"465f9d0ed75","latitude":59.3611165922066,"longitude":18.0525747321101},{"appear_time":2851,"disappear_time":1051,"id":"465f9d08e19","latitude":59.3620989489639,"longitude":18.0489552785441},{"appear_time":2273,"disappear_time":473,"id":"465f9d04553","latitude":59.3663561727134,"longitude":18.0601763176695},{"appear_time":1692,"disappear_time":3492,"id":"465f9d05423","latitude":59.3641945674827,"longitude":18.0616302805499},{"appear_time":3140,"disappear_time":1340,"id":"465f9d08e11","latitude":59.3621622384298,"longitude":18.0491634092251},{"appear_time":193,"disappear_time":1993,"id":"465f9d0edd1","latitude":59.3607186187182,"longitude":18.0534065866261},{"appear_time":3088,"disappear_time":1288,"id":"465f9d050e1","latitude":59.3651596406129,"longitude":18.0607366830625},{"appear_time":612,"disappear_time":2412,"id":"465f9d0fb87","latitude":59.3613771232613,"longitude":18.0592127022915},{"appear_time":230,"disappear_time":2030,"id":"465f9d05709","latitude":59.3641921796332,"longitude":18.0596948965624},{"appear_time":335,"disappear_time":2135,"id":"465f9d063ef","latitude":59.3657784502623,"longitude":18.0518512591552},{"appear_time":3104,"disappear_time":1304,"id":"465f9d05929","latitude":59.3646085960129,"longitude":18.0567819706718},{"appear_time":2636,"disappear_time":836,"id":"465f9d03b8f","latitude":59.37108392283,"longitude":18.0615977702372},{"appear_time":1820,"disappear_time":20,"id":"465f9d11cdf","latitude":59.3597633912979,"longitude":18.0620404803248},{"appear_time":1207,"disappear_time":3007,"id":"465f9d030e9","latitude":59.3705832496072,"longitude":18.0644488025176},{"appear_time":3514,"disappear_time":1714,"id":"465f9da9fdf","latitude":59.3706044117719,"longitude":18.0480265314048},{"appear_time":742,"disappear_time":2542,"id":"465f9d0f1eb","latitude":59.3614554837837,"longitude":18.054759875441},{"appear_time":2746,"disappear_time":946,"id":"465f9d0438d","latitude":59.3676143800205,"longitude":18.0585337308873},{"appear_time":1690,"disappear_time":3490,"id":"465f9d05fd5","latitude":59.364878395438,"longitude":18.054243455951},{"appear_time":1053,"disappear_time":2853,"id":"465f9d0f62f","latitude":59.3636635606485,"longitude":18.0568849030273},{"appear_time":540,"disappear_time":2340,"id":"465f9d0ffd9","latitude":59.3624734753561,"longitude":18.0626060291096},{"appear_time":1466,"disappear_time":3266,"id":"465f9d063e5","latitude":59.3657576373431,"longitude":18.051996908461},{"appear_time":3300,"disappear_time":1500,"id":"465f9d05f1f","latitude":59.3646494114072,"longitude":18.0558455647306},{"appear_time":793,"disappear_time":2593,"id":"465f9d05951","latitude":59.3651131630058,"longitude":18.0571571540866},{"appear_time":1652,"disappear_time":3452,"id":"465f9d0efb7","latitude":59.3606578452227,"longitude":18.055133506342},{"appear_time":522,"disappear_time":2322,"id":"465f9d03091","latitude":59.3707298349908,"longitude":18.0640743281572},{"appear_time":7,"disappear_time":1807,"id":"465f9d05c29","latitude":59.3654479047306,"longitude":18.056117017695},{"appear_time":961,"disappear_time":2761,"id":"465f9d057f5","latitude":59.3638758266308,"longitude":18.0586539897658},{"appear_time":810,"disappear_time":2610,"id":"465f9d06a1f","latitude":59.3684096349034,"longitude":18.0562244825499},{"appear_time":111,"disappear_time":1911,"id":"465f9d05c21","latitude":59.3654062676973,"longitude":18.0564083178793},{"appear_time":2958,"disappear_time":1158,"id":"465f9d0798f","latitude":59.3675168815993,"longitude":18.0481486776699},{"appear_time":1681,"disappear_time":3481,"id":"465f9d03a11","latitude":59.3705817003409,"longitude":18.0631582466674},{"appear_time":2239,"disappear_time":439,"id":"465f9d03419","latitude":59.3696605285587,"longitude":18.0656964048141},{"appear_time":3050,"disappear_time":1250,"id":"465f9d055f5","latitude":59.3632279179233,"longitude":18.0612335966222},{"appear_time":2098,"disappear_time":298,"id":"465f9d11d55","latitude":59.3601822473778,"longitude":18.0610630752579},{"appear_time":383,"disappear_time":2183,"id":"465f9d07b93","latitude":59.3667192182296,"longitude":18.0485225482964},{"appear_time":3588,"disappear_time":1788,"id":"465f9d0686b","latitude":59.3673371880365,"longitude":18.0552659083172},{"appear_time":440,"disappear_time":2240,"id":"465f9d05fc1","latitude":59.3645636598322,"longitude":18.0544928272298},{"appear_time":861,"disappear_time":2661,"id":"465f9d0671d","latitude":59.3662222760153,"longitude":18.0539535745187},{"appear_time":510,"disappear_time":2310,"id":"465f9d0fe65","latitude":59.3619257090523,"longitude":18.0612318657191},{"appear_time":1526,"disappear_time":3326,"id":"465f9d04043","latitude":59.3691473156875,"longitude":18.0582234009302},{"appear_time":1052,"disappear_time":2852,"id":"465f9d05fc9","latitude":59.3647318515728,"longitude":18.0546178720164},{"appear_time":2262,"disappear_time":462,"id":"465f9d06e9b","latitude":59.368616153903,"longitude":18.0534774702308},{"appear_time":1856,"disappear_time":56,"id":"465f9d10f69","latitude":59.3604831696804,"longitude":18.0667650407748},{"appear_time":1351,"disappear_time":3151,"id":"465f9d05d8d","latitude":59.3659508307421,"longitude":18.055201920299},{"appear_time":1415,"disappear_time":3215,"id":"465f9d0f31d","latitude":59.3621673568854,"longitude":18.053033611021},{"appear_time":739,"disappear_time":2539,"id":"465f9d1b027","latitude":59.365106404225,"longitude":18.0689156863032},{"appear_time":1416,"disappear_time":3216,"id":"465f9d07981","latitude":59.3673278695583,"longitude":18.0481693199102},{"appear_time":1495,"disappear_time":3295,"id":"465f9d03b9b","latitude":59.3711471913821,"longitude":18.0618060070456},{"appear_time":3435,"disappear_time":1635,"id":"465f9d056e7","latitude":59.3643611632537,"longitude":18.0604651023818},{"appear_time":1350,"disappear_time":3150,"id":"465f9d03109","latitude":59.3707313733526,"longitude":18.0653649001629},{"appear_time":399,"disappear_time":2199,"id":"465f9d0f0b7","latitude":59.3621931571711,"longitude":18.0567583053023},{"appear_time":3183,"disappear_time":1383,"id":"465f9d068d1","latitude":59.3677976513397,"longitude":18.0539968972678},{"appear_time":1254,"disappear_time":3054,"id":"465f9d055ff","latitude":59.3632903903434,"longitude":18.0607966694349},{"appear_time":2862,"disappear_time":1062,"id":"465f9d00d05","latitude":59.370988426212,"longitude":18.0525017219192},{"appear_time":1542,"disappear_time":3342,"id":"465f9d0f775","latitude":59.3629499931054,"longitude":18.0573210472899},{"appear_time":424,"disappear_time":2224,"id":"465f9d09349","latitude":59.3605470367846,"longitude":18.0507015436448},{"appear_time":427,"disappear_time":2227,"id":"465f9d05e51","latitude":59.3649216890526,"longitude":18.0552423832179},{"appear_time":3070,"disappear_time":1270,"id":"465f9d0544b","latitude":59.363879818718,"longitude":18.0618795861592},{"appear_time":796,"disappear_time":2596,"id":"465f9d1ac95","latitude":59.3644715683768,"longitude":18.0648980073665},{"appear_time":3386,"disappear_time":1586,"id":"465f9d0f67d","latitude":59.3632630872821,"longitude":18.0557815424442},{"appear_time":454,"disappear_time":2254,"id":"465f9d00da1","latitude":59.3711149981778,"longitude":18.0529181265142},{"appear_time":1267,"disappear_time":3067,"id":"465f9d06665","latitude":59.3666835589587,"longitude":18.0533297434308},{"appear_time":3181,"disappear_time":1381,"id":"465f9d06bef","latitude":59.3687860157159,"longitude":18.0548928991003},{"appear_time":3338,"disappear_time":1538,"id":"465f9d0f873","latitude":59.3633720788204,"longitude":18.0589238896383},{"appear_time":426,"disappear_time":2226,"id":"465f9d0446d","latitude":59.3675310900708,"longitude":18.0591163778796},{"appear_time":1782,"disappear_time":3582,"id":"465f9d0132d","latitude":59.3701507614045,"longitude":18.0544573169153},{"appear_time":841,"disappear_time":2641,"id":"465f9d0599d","latitude":59.364883327451,"longitude":18.0581141627997},{"appear_time":2797,"disappear_time":2797,"id":"465f9d01407","latitude":59.3711824218699,"longitude":18.056352535014},{"appear_time":2658,"disappear_time":2658,"id":"465f9d1b56b","latitude":59.3679192428988,"longitude":18.0674630761027},{"appear_time":1229,"disappear_time":3029,"id":"465f9d0934b","latitude":59.3605262268558,"longitude":18.050847167368},{"appear_time":3456,"disappear_time":1656,"id":"465f9d03741","latitude":59.3699521597687,"longitude":18.0636569457114},{"appear_time":1388,"disappear_time":3188,"id":"465f9da9e07","latitude":59.3697000760775,"longitude":18.0471932611494},{"appear_time":1012,"disappear_time":2812,"id":"465f9d0396d","latitude":59.3702437546572,"longitude":18.0616174829868},{"appear_time":1487,"disappear_time":3287,"id":"465f9d100f3","latitude":59.3623492943024,"longitude":18.064124972783},{"appear_time":1752,"disappear_time":3552,"id":"465f9d039a9","latitude":59.369928988312,"longitude":18.0618668442449},{"appear_time":162,"disappear_time":1962,"id":"465f9d0f87d","latitude":59.3633096137048,"longitude":18.0593608148729},{"appear_time":302,"disappear_time":2102,"id":"465f9d060bb","latitude":59.3654454213254,"longitude":18.0541816458576},{"appear_time":183,"disappear_time":1983,"id":"465f9d08b4b","latitude":59.3632172881377,"longitude":18.0528474519201},{"appear_time":1505,"disappear_time":3305,"id":"465f9d01495","latitude":59.3702789720518,"longitude":18.0561641782547},{"appear_time":1218,"disappear_time":3018,"id":"465f9d039a3","latitude":59.3700763506977,"longitude":18.0621376306186},{"appear_time":3151,"disappear_time":1351,"id":"465f9d1d283","latitude":59.3709048189548,"longitude":18.0700071790433},{"appear_time":812,"disappear_time":2612,"id":"465f9da9f63","latitude":59.3711489148843,"longitude":18.0468198595155},{"appear_time":2674,"disappear_time":874,"id":"465f9d05443","latitude":59.364111265151,"longitude":18.0622128691924},{"appear_time":1583,"disappear_time":3383,"id":"465f9d09295","latitude":59.3613663283401,"longitude":18.0508272009234},{"appear_time":975,"disappear_time":2775,"id":"465f9d09297","latitude":59.3614504243083,"longitude":18.0508897058253},{"appear_time":17,"disappear_time":1817,"id":"465f9d08e49","latitude":59.3624136660355,"longitude":18.0487058853844},{"appear_time":3568,"disappear_time":1768,"id":"465f9da9e19","latitude":59.3699523880671,"longitude":18.047380784283},{"appear_time":2398,"disappear_time":598,"id":"465f9d11d37","latitude":59.3600148642947,"longitude":18.0615830487305},{"appear_time":3456,"disappear_time":1656,"id":"465f9d0682d","latitude":59.3676111219167,"longitude":18.0559530093101},{"appear_time":461,"disappear_time":2261,"id":"465f9d1afb1","latitude":59.3646227159397,"longitude":18.0683946217011},{"appear_time":2799,"disappear_time":999,"id":"465f9d0506d","latitude":59.3658524103663,"longitude":18.0604462224261},{"appear_time":3231,"disappear_time":1431,"id":"465f9d0fb5d","latitude":59.3608933999418,"longitude":18.0586918874253},{"appear_time":2599,"disappear_time":799,"id":"465f9d06f5b","latitude":59.3674604209007,"longitude":18.0531016397935},{"appear_time":3382,"disappear_time":1582,"id":"465f9d035eb","latitude":59.3688620358802,"longitude":18.0654246589415},{"appear_time":2998,"disappear_time":1198,"id":"465f9d0311d","latitude":59.3706048500251,"longitude":18.0649484061477},{"appear_time":383,"disappear_time":2183,"id":"465f9d06927","latitude":59.3679450316288,"longitude":18.0542676108873},{"appear_time":469,"disappear_time":2269,"id":"465f9d08783","latitude":59.3649539722996,"longitude":18.0478550621125},{"appear_time":281,"disappear_time":2081,"id":"465f9d08cfd","latitude":59.362417103816,"longitude":18.0512860166565},{"appear_time":103,"disappear_time":1903,"id":"465f9d0fe5f","latitude":59.362114712858,"longitude":18.0612113080688},{"appear_time":292,"disappear_time":2092,"id":"465f9d03345","latitude":59.3699150765858,"longitude":18.0678199493706},{"appear_time":3396,"disappear_time":1596,"id":"465f9d05623","latitude":59.3634785988902,"longitude":18.0601309953537},{"appear_time":240,"disappear_time":2040,"id":"465f9d03699","latitude":59.3696389314028,"longitude":18.0651968126435},{"appear_time":1228,"disappear_time":3028,"id":"465f9d0ee17","latitude":59.360950922829,"longitude":18.0543847760305},{"appear_time":176,"disappear_time":1976,"id":"465f9d0f6ed","latitude":59.362948353224,"longitude":18.0560308865245},{"appear_time":2963,"disappear_time":1163,"id":"465f9d040f5","latitude":59.3690848484226,"longitude":18.0586604076175},{"appear_time":2564,"disappear_time":764,"id":"465f9d05149","latitude":59.3648032413985,"longitude":18.0612773045613},{"appear_time":3104,"disappear_time":1304,"id":"465f9d101d5","latitude":59.3622003817179,"longitude":18.0625640346943},{"appear_time":3555,"disappear_time":1755,"id":"465f9d01339","latitude":59.3702773251018,"longitude":18.0548737254909},{"appear_time":2234,"disappear_time":434,"id":"465f9d0448f","latitude":59.3671106153849,"longitude":18.0588036718264},{"appear_time":3452,"disappear_time":1652,"id":"465f9d1afbb","latitude":59.3646018816348,"longitude":18.0685402746857},{"appear_time":1239,"disappear_time":3039,"id":"465f9d0334f","latitude":59.3698942415357,"longitude":18.0679656272744},{"appear_time":2367,"disappear_time":567,"id":"465f9d03443","latitude":59.3694931068104,"longitude":18.0662165381729},{"appear_time":1155,"disappear_time":2955,"id":"465f9d08cf9","latitude":59.362522011364,"longitude":18.0512028914184},{"appear_time":1721,"disappear_time":3521,"id":"465f9d08cf1","latitude":59.3625852966384,"longitude":18.0514110333617},{"appear_time":3120,"disappear_time":1320,"id":"465f9d03eaf","latitude":59.3705577305473,"longitude":18.0607228544639},{"appear_time":1131,"disappear_time":2931,"id":"465f9d03e3d","latitude":59.3705553352051,"longitude":18.0587870885879},{"appear_time":3239,"disappear_time":1439,"id":"465f9d03e3b","latitude":59.3704712379469,"longitude":18.0587245425857},{"appear_time":1582,"disappear_time":3382,"id":"465f9d06d79","latitude":59.3696444914704,"longitude":18.0527917305914},{"appear_time":96,"disappear_time":1896,"id":"465f9d05e17","latitude":59.3652572439418,"longitude":18.054847366191},{"appear_time":3266,"disappear_time":1466,"id":"465f9d09269","latitude":59.361491186405,"longitude":18.0499534343472},{"appear_time":2237,"disappear_time":437,"id":"465f9d0f8e1","latitude":59.3627217755891,"longitude":18.0595681634189},{"appear_time":3590,"disappear_time":1790,"id":"465f9d09263","latitude":59.3615336641825,"longitude":18.0503071931044},{"appear_time":1821,"disappear_time":21,"id":"465f9d08b01","latitude":59.363699364416,"longitude":18.0520780361427},{"appear_time":487,"disappear_time":2287,"id":"465f9d06749","latitude":59.3658026242079,"longitude":18.0542860880328},{"appear_time":1896,"disappear_time":96,"id":"465f9d050df","latitude":59.365075548287,"longitude":18.0606741399668},{"appear_time":1322,"disappear_time":3122,"id":"465f9d092cd","latitude":59.3611148948917,"longitude":18.0512846993584},{"appear_time":3161,"disappear_time":1361,"id":"465f9d05665","latitude":59.3638574094126,"longitude":18.0607349820915},{"appear_time":3537,"disappear_time":1737,"id":"465f9d06747","latitude":59.3658867210503,"longitude":18.0543486116993},{"appear_time":262,"disappear_time":2062,"id":"465f9d05e6b","latitude":59.3652156103491,"longitude":18.0551386631455},{"appear_time":2102,"disappear_time":302,"id":"465f9d03237","latitude":59.3707120627835,"longitude":18.0668011674732},{"appear_time":1158,"disappear_time":2958,"id":"465f9d05801","latitude":59.363644369231,"longitude":18.0583207455834},{"appear_time":779,"disappear_time":2579,"id":"465f9d10f5d","latitude":59.3605880859326,"longitude":18.0666819629349},{"appear_time":3314,"disappear_time":1514,"id":"465f9d05ba3","latitude":59.3657234578497,"longitude":18.0580943756642},{"appear_time":1526,"disappear_time":3326,"id":"465f9d07deb","latitude":59.3654785110666,"longitude":18.0474393456804},{"appear_time":3361,"disappear_time":1561,"id":"465f9d053e5","latitude":59.3647832057047,"longitude":18.0620681006102},{"appear_time":3385,"disappear_time":1585,"id":"465f9d0f7af","latitude":59.3631806364859,"longitude":18.0570091855652},{"appear_time":964,"disappear_time":2764,"id":"465f9d1b245","latitude":59.365860185515,"longitude":18.066898012183},{"appear_time":1164,"disappear_time":2964,"id":"465f9d1b243","latitude":59.3657760965833,"longitude":18.0668354479552},{"appear_time":1750,"disappear_time":3550,"id":"465f9d1b241","latitude":59.3657552639982,"longitude":18.0669811055742},{"appear_time":1470,"disappear_time":3270,"id":"465f9d051cb","latitude":59.3658115546311,"longitude":18.0613826950632},{"appear_time":1831,"disappear_time":31,"id":"465f9d039e7","latitude":59.3700563049699,"longitude":18.0629285665823},{"appear_time":3070,"disappear_time":1270,"id":"465f9d0720b","latitude":59.3692656185248,"longitude":18.0521877766021},{"appear_time":2619,"disappear_time":819,"id":"465f9d09317","latitude":59.3607776570813,"longitude":18.0503896762917},{"appear_time":3045,"disappear_time":1245,"id":"465f9d039e9","latitude":59.3700771334542,"longitude":18.0627828907011},{"appear_time":75,"disappear_time":1875,"id":"465f9d05891","latitude":59.3640207548783,"longitude":18.0569893750173},{"appear_time":2904,"disappear_time":1104,"id":"465f9d06c89","latitude":59.3693946962644,"longitude":18.0545397485828},{"appear_time":760,"disappear_time":2560,"id":"465f9d05247","latitude":59.3653934549703,"longitude":18.0630054482687},{"appear_time":2049,"disappear_time":249,"id":"465f9d0f735","latitude":59.3623821611753,"longitude":18.0567377208276},{"appear_time":835,"disappear_time":2635,"id":"465f9d0f733","latitude":59.3624029793604,"longitude":18.0565920849806},{"appear_time":1713,"disappear_time":3513,"id":"465f9da9e53","latitude":59.3703928448179,"longitude":18.0469024773509},{"appear_time":2254,"disappear_time":454,"id":"465f9d0f9a5","latitude":59.3625736080272,"longitude":18.0586523701567},{"appear_time":1899,"disappear_time":99,"id":"465f9d08cef","latitude":59.3625644852013,"longitude":18.0515566671971},{"appear_time":1528,"disappear_time":3328,"id":"465f9d03717","latitude":59.3698264068218,"longitude":18.0638857356307},{"appear_time":723,"disappear_time":2523,"id":"465f9d03715","latitude":59.3698472364974,"longitude":18.0637400603146},{"appear_time":3445,"disappear_time":1645,"id":"465f9d042d1","latitude":59.3669399894079,"longitude":18.0567430848598},{"appear_time":581,"disappear_time":2381,"id":"465f9d1b331","latitude":59.366468121099,"longitude":18.0658998955824},{"appear_time":1558,"disappear_time":3358,"id":"465f9d06bb9","latitude":59.3688917582754,"longitude":18.0554549594751},{"appear_time":2588,"disappear_time":788,"id":"465f9d0ff75","latitude":59.3628082578306,"longitude":18.0615659954339},{"appear_time":539,"disappear_time":2339,"id":"465f9d058f3","latitude":59.3641681233569,"longitude":18.0572600787594},{"appear_time":869,"disappear_time":2669,"id":"465f9d05439","latitude":59.3640688257984,"longitude":18.0618590296976},{"appear_time":715,"disappear_time":2515,"id":"465f9d0f9f1","latitude":59.3623205209024,"longitude":18.0578197000535},{"appear_time":1492,"disappear_time":3292,"id":"465f9d0efa7","latitude":59.3603847515527,"longitude":18.0550915809478},{"appear_time":264,"disappear_time":2064,"id":"465f9d04b5f","latitude":59.3670768195139,"longitude":18.0655469597244},{"appear_time":2139,"disappear_time":339,"id":"465f9d03c27","latitude":59.3708092253474,"longitude":18.060265248254},{"appear_time":1437,"disappear_time":3237,"id":"465f9d0f9ab","latitude":59.3627209706528,"longitude":18.0589230737432},{"appear_time":2781,"disappear_time":2781,"id":"465f9d1abfd","latitude":59.3638219916212,"longitude":18.0661873624829},{"appear_time":3004,"disappear_time":1204,"id":"465f9d08bc3","latitude":59.3635719441437,"longitude":18.0510166697763},{"appear_time":355,"disappear_time":2155,"id":"465f9d0f94b","latitude":59.362218031127,"longitude":18.0598380383773},{"appear_time":3096,"disappear_time":3096,"id":"465f9d091fd","latitude":59.3618891378077,"longitude":18.0491215379312},{"appear_time":1418,"disappear_time":3218,"id":"465f9d030c9","latitude":59.3703517988244,"longitude":18.0641154325091},{"appear_time":2817,"disappear_time":2817,"id":"465f9d07b87","latitude":59.3665093986992,"longitude":18.0486888382942},{"appear_time":83,"disappear_time":1883,"id":"465f9d0ffeb","latitude":59.3627041318385,"longitude":18.062294197964},{"appear_time":1297,"disappear_time":3097,"id":"465f9d0ffed","latitude":59.362788221516,"longitude":18.0623567422518},{"appear_time":694,"disappear_time":2494,"id":"465f9d063c7","latitude":59.3655469677202,"longitude":18.0515180659755},{"appear_time":52,"disappear_time":52,"id":"465f9d03393","latitude":59.3701025836976,"longitude":18.066508847402},{"appear_time":3341,"disappear_time":1541,"id":"465f9d072a7","latitude":59.3701066247579,"longitude":18.0528130200533},{"appear_time":711,"disappear_time":2511,"id":"465f9d034b5","latitude":59.3693688610269,"longitude":18.0677358602884},{"appear_time":306,"disappear_time":2106,"id":"465f9d072a5","latitude":59.3701274399794,"longitude":18.0526673495524},{"appear_time":2650,"disappear_time":2650,"id":"465f9d0ef49","latitude":59.3597544737909,"longitude":18.0549452161245},{"appear_time":2378,"disappear_time":578,"id":"465f9d03f47","latitude":59.3696534996592,"longitude":18.0598891262651},{"appear_time":2677,"disappear_time":877,"id":"465f9d03a37","latitude":59.3707491099365,"longitude":18.0626380912935},{"appear_time":2915,"disappear_time":1115,"id":"465f9d079e7","latitude":59.3678949066174,"longitude":18.0481073920545},{"appear_time":1495,"disappear_time":3295,"id":"465f9d05d29","latitude":59.3666668819315,"longitude":18.0567011425148},{"appear_time":3027,"disappear_time":1227,"id":"465f9d04dd3","latitude":59.3665491257903,"longitude":18.0633816625158},{"appear_time":571,"disappear_time":2371,"id":"465f9d1055f","latitude":59.359872976959,"longitude":18.065827726864},{"appear_time":1634,"disappear_time":3434,"id":"465f9d03573","latitude":59.3687370434545,"longitude":18.0662986879778},{"appear_time":2636,"disappear_time":836,"id":"465f9d0fb93","latitude":59.3615869472222,"longitude":18.0590465001188},{"appear_time":2517,"disappear_time":717,"id":"465f9d03577","latitude":59.368673784598,"longitude":18.0660904497502},{"appear_time":374,"disappear_time":2174,"id":"465f9d06f15","latitude":59.3677543472858,"longitude":18.0529978901083},{"appear_time":3292,"disappear_time":1492,"id":"465f9d1a71f","latitude":59.3626500538319,"longitude":18.0698275106205},{"appear_time":1907,"disappear_time":107,"id":"465f9d033f3","latitude":59.3700393246981,"longitude":18.0663005995317},{"appear_time":1119,"disappear_time":2919,"id":"465f9d0f763","latitude":59.3627193494023,"longitude":18.0576329050051},{"appear_time":3033,"disappear_time":1233,"id":"465f9d0511b","latitude":59.365202083749,"longitude":18.0610905299444},{"appear_time":1959,"disappear_time":159,"id":"465f9d03977","latitude":59.370286195539,"longitude":18.0619713908735},{"appear_time":354,"disappear_time":2154,"id":"465f9d03a3f","latitude":59.3707074527821,"longitude":18.0629294492869},{"appear_time":2660,"disappear_time":860,"id":"465f9d0324d","latitude":59.3705863026079,"longitude":18.0670299566585},{"appear_time":2826,"disappear_time":1026,"id":"465f9d03bc9","latitude":59.3708115942782,"longitude":18.0622010541647},{"appear_time":1766,"disappear_time":3566,"id":"465f9d012bb","latitude":59.3704646802017,"longitude":18.0535626726842},{"appear_time":2937,"disappear_time":1137,"id":"465f9d1b5e1","latitude":59.3676900585286,"longitude":18.0690654251422},{"appear_time":358,"disappear_time":2158,"id":"465f9d09215","latitude":59.3615328042782,"longitude":18.0496621786764},{"appear_time":243,"disappear_time":2043,"id":"465f9d06dfd","latitude":59.3689716887684,"longitude":18.0522915399264},{"appear_time":2042,"disappear_time":242,"id":"465f9d05209","latitude":59.3658555659474,"longitude":18.0630268958896},{"appear_time":3547,"disappear_time":1747,"id":"465f9d05757","latitude":59.3648008481378,"longitude":18.0593418884082},{"appear_time":2,"disappear_time":1802,"id":"465f9d1ccb5","latitude":59.3699366617167,"longitude":18.0683195588189},{"appear_time":30,"disappear_time":1830,"id":"465f9d0f841","latitude":59.3631198021628,"longitude":18.0587362881426},{"appear_time":278,"disappear_time":2078,"id":"465f9d05599","latitude":59.3634177150515,"longitude":18.0618581538551},{"appear_time":194,"disappear_time":1994,"id":"465f9d07cef","latitude":59.3659215595347,"longitude":18.0488963985592},{"appear_time":1723,"disappear_time":1723,"id":"465f9d05597","latitude":59.3634385402503,"longitude":18.0617125102259},{"appear_time":3385,"disappear_time":1585,"id":"465f9d0f849","latitude":59.3629516178168,"longitude":18.0586112222084},{"appear_time":1572,"disappear_time":3372,"id":"465f9d0f6fd","latitude":59.3629699933256,"longitude":18.056530326622},{"appear_time":1860,"disappear_time":60,"id":"465f9d05971","latitude":59.3649249686658,"longitude":18.0578228657065},{"appear_time":2809,"disappear_time":1009,"id":"465f9d08e4d","latitude":59.3625185718159,"longitude":18.0486227532434},{"appear_time":1737,"disappear_time":3537,"id":"465f9d0f18b","latitude":59.3616020230834,"longitude":18.0543855008694},{"appear_time":2149,"disappear_time":349,"id":"465f9d0ecbf","latitude":59.3604429852884,"longitude":18.0514296620792},{"appear_time":2939,"disappear_time":1139,"id":"465f9d08c87","latitude":59.3629424941806,"longitude":18.0515154353251},{"appear_time":2627,"disappear_time":827,"id":"465f9d08d87","latitude":59.3618067632912,"longitude":18.0503490751232},{"appear_time":3545,"disappear_time":1745,"id":"465f9d05bcd","latitude":59.3653246178837,"longitude":18.0582811879636},{"appear_time":2618,"disappear_time":818,"id":"465f9d03ef9","latitude":59.3702621989488,"longitude":18.0595360470814},{"appear_time":811,"disappear_time":2611,"id":"465f9d0ffa9","latitude":59.36253516281,"longitude":18.0615240104167},{"appear_time":2312,"disappear_time":512,"id":"465f9d033e3","latitude":59.3701859153733,"longitude":18.0659261349341},{"appear_time":863,"disappear_time":2663,"id":"465f9d044e7","latitude":59.3668591356907,"longitude":18.0592612263233},{"appear_time":3244,"disappear_time":1444,"id":"465f9d0ffa1","latitude":59.36270334292,"longitude":18.0616490937775},{"appear_time":3375,"disappear_time":1575,"id":"465f9d0629d","latitude":59.3648516589859,"longitude":18.0498734361487},{"appear_time":2349,"disappear_time":549,"id":"465f9d06be3","latitude":59.3686178187509,"longitude":18.0547678386901},{"appear_time":3304,"disappear_time":1504,"id":"465f9d06457","latitude":59.3666394027155,"longitude":18.0516856469065},{"appear_time":2715,"disappear_time":915,"id":"465f9d1cc41","latitude":59.3697915483812,"longitude":18.0699845998528},{"appear_time":663,"disappear_time":2463,"id":"465f9d036a3","latitude":59.3697230240186,"longitude":18.0652593781687},{"appear_time":1742,"disappear_time":3542,"id":"465f9d1cc43","latitude":59.3698123860525,"longitude":18.0698389213189},{"appear_time":448,"disappear_time":2248,"id":"465f9d0335f","latitude":59.3697677289836,"longitude":18.0675491243879},{"appear_time":1553,"disappear_time":3353,"id":"465f9d0fa2d","latitude":59.3619641452013,"longitude":18.0583602886242},{"appear_time":3342,"disappear_time":1542,"id":"465f9d054e7","latitude":59.3638181260306,"longitude":18.0629616545581},{"appear_time":2555,"disappear_time":755,"id":"465f9d0fef7","latitude":59.3622196268981,"longitude":18.0611282103532},{"appear_time":494,"disappear_time":2294,"id":"465f9d03eff","latitude":59.3701781023629,"longitude":18.0594734991561},{"appear_time":152,"disappear_time":1952,"id":"465f9da9e05","latitude":59.3697841800556,"longitude":18.0472557685147},{"appear_time":2608,"disappear_time":808,"id":"465f9d04a89","latitude":59.3682533279202,"longitude":18.0657776211026},{"appear_time":3100,"disappear_time":1300,"id":"465f9da9f99","latitude":59.3708133681856,"longitude":18.0472150188434},{"appear_time":188,"disappear_time":1988,"id":"465f9d0ecb1","latitude":59.3604005112945,"longitude":18.0510759107016},{"appear_time":1788,"disappear_time":3588,"id":"465f9d0ecb3","latitude":59.3604213214879,"longitude":18.0509302874504},{"appear_time":519,"disappear_time":2319,"id":"465f9d08dff","latitude":59.3619316183396,"longitude":18.0494752975444},{"appear_time":2974,"disappear_time":1174,"id":"465f9d05dc3","latitude":59.365720186044,"longitude":18.0555138208734},{"appear_time":2983,"disappear_time":1183,"id":"465f9d1af13","latitude":59.3641606126888,"longitude":18.0683730919763},{"appear_time":2891,"disappear_time":1091,"id":"465f9d00d27","latitude":59.3706728349314,"longitude":18.0521059456044},{"appear_time":133,"disappear_time":1933,"id":"465f9d06959","latitude":59.3685337202961,"longitude":18.0547053090039},{"appear_time":1270,"disappear_time":3070,"id":"465f9d08d49","latitude":59.3618925667504,"longitude":18.0517016346895},{"appear_time":266,"disappear_time":2066,"id":"465f9d03fb5","latitude":59.3701773001949,"longitude":18.0588282550361},{"appear_time":2294,"disappear_time":494,"id":"465f9d0ff45","latitude":59.3629964699281,"longitude":18.0609003323753},{"appear_time":3548,"disappear_time":1748,"id":"465f9d058e3","latitude":59.3644412246546,"longitude":18.0573020253355},{"appear_time":2844,"disappear_time":1044,"id":"465f9d014cf","latitude":59.3699850366959,"longitude":18.0562679118688},{"appear_time":430,"disappear_time":2230,"id":"465f9d014a9","latitude":59.3700891334511,"longitude":18.0555395524778},{"appear_time":3481,"disappear_time":1681,"id":"465f9d0543f","latitude":59.3641529166874,"longitude":18.061921574908},{"appear_time":486,"disappear_time":2286,"id":"465f9d03b8b","latitude":59.3710206538992,"longitude":18.0613895346281},{"appear_time":1765,"disappear_time":3565,"id":"465f9d03f03","latitude":59.3700731817323,"longitude":18.059556625666},{"appear_time":953,"disappear_time":2753,"id":"465f9d057d3","latitude":59.3635618895754,"longitude":18.059548423403},{"appear_time":2703,"disappear_time":903,"id":"465f9d036ef","latitude":59.3696381626433,"longitude":18.064551548498},{"appear_time":885,"disappear_time":2685,"id":"465f9d08bd3","latitude":59.3638450476253,"longitude":18.0510585590053},{"appear_time":255,"disappear_time":2055,"id":"465f9d068fd","latitude":59.3677776658178,"longitude":18.0547877260422},{"appear_time":1803,"disappear_time":3,"id":"465f9d00d73","latitude":59.3709259799123,"longitude":18.0529387454115},{"appear_time":2696,"disappear_time":896,"id":"465f9d08681","latitude":59.3637973757919,"longitude":18.0468344416573},{"appear_time":3163,"disappear_time":1363,"id":"465f9d044ab","latitude":59.366647689386,"longitude":18.0581371221081},{"appear_time":1867,"disappear_time":67,"id":"465f9d03127","latitude":59.3703525698295,"longitude":18.0647607091094},{"appear_time":7,"disappear_time":1807,"id":"465f9d0f80d","latitude":59.3633929001551,"longitude":18.0587782478567},{"appear_time":1340,"disappear_time":3140,"id":"465f9d0673f","latitude":59.365991634059,"longitude":18.0542654840469},{"appear_time":127,"disappear_time":1927,"id":"465f9d0673d","latitude":59.3660124500217,"longitude":18.0541198323637},{"appear_time":1591,"disappear_time":3391,"id":"465f9d1af15","latitude":59.3640765258529,"longitude":18.0683105258794},{"appear_time":1177,"disappear_time":2977,"id":"465f9d06e65","latitude":59.3686153157893,"longitude":18.0528322913113},{"appear_time":3349,"disappear_time":1549,"id":"465f9d06e69","latitude":59.3685520308381,"longitude":18.0526241049305},{"appear_time":2476,"disappear_time":676,"id":"465f9d0f8b1","latitude":59.3630797641059,"longitude":18.0603177679099},{"appear_time":861,"disappear_time":2661,"id":"465f9d0f803","latitude":59.3634553630477,"longitude":18.0583413224019},{"appear_time":2153,"disappear_time":2153,"id":"465f9d1ccf5","latitude":59.3698748979543,"longitude":18.0694018856056},{"appear_time":1190,"disappear_time":2990,"id":"465f9d03a05","latitude":59.3704767767998,"longitude":18.0632413645348},{"appear_time":2632,"disappear_time":832,"id":"465f9d014bb","latitude":59.3701315940917,"longitude":18.0558934322031},{"appear_time":2330,"disappear_time":530,"id":"465f9d06dc1","latitude":59.3691615449313,"longitude":18.0529161070377},{"appear_time":3451,"disappear_time":1651,"id":"465f9d00ab3","latitude":59.3709625023928,"longitude":18.0487761099637},{"appear_time":1104,"disappear_time":2904,"id":"465f9d05b6f","latitude":59.3661014780198,"longitude":18.0580532125891},{"appear_time":1772,"disappear_time":3572,"id":"465f9d0ed93","latitude":59.3611174351763,"longitude":18.0532197537955},{"appear_time":1470,"disappear_time":3270,"id":"465f9d0f651","latitude":59.3632430922327,"longitude":18.0565722660959},{"appear_time":51,"disappear_time":1851,"id":"465f9d0376f","latitude":59.3698048014239,"longitude":18.0633861496777},{"appear_time":3194,"disappear_time":1394,"id":"465f9d0f793","latitude":59.3632655453918,"longitude":18.0577168044358},{"appear_time":2198,"disappear_time":398,"id":"465f9d03947","latitude":59.3703062345506,"longitude":18.0611804547895},{"appear_time":576,"disappear_time":2376,"id":"465f9d03945","latitude":59.370390330151,"longitude":18.0612430084576},{"appear_time":1382,"disappear_time":3182,"id":"465f9d0ec13","latitude":59.3601715869431,"longitude":18.0526777652638},{"appear_time":1107,"disappear_time":2907,"id":"465f9d1b507","latitude":59.3676044713313,"longitude":18.0677123690034},{"appear_time":3184,"disappear_time":1384,"id":"465f9d039f7","latitude":59.3703294168147,"longitude":18.0629705671267},{"appear_time":3366,"disappear_time":1566,"id":"465f9d0542b","latitude":59.3639631190377,"longitude":18.0612970026713},{"appear_time":1829,"disappear_time":29,"id":"465f9d09327","latitude":59.3609042289987,"longitude":18.0508059326236},{"appear_time":3313,"disappear_time":1513,"id":"465f9d033d1","latitude":59.3705014525491,"longitude":18.0663220921784},{"appear_time":2061,"disappear_time":261,"id":"465f9d03c0f","latitude":59.3708941149011,"longitude":18.0609730670082},{"appear_time":762,"disappear_time":2562,"id":"465f9d031ab","latitude":59.3708571303863,"longitude":18.0651361063014},{"appear_time":227,"disappear_time":2027,"id":"465f9d059f3","latitude":59.3648841361784,"longitude":18.0587592929929},{"appear_time":340,"disappear_time":2140,"id":"465f9d0ff0f","latitude":59.3626609019027,"longitude":18.0612952725627},{"appear_time":3191,"disappear_time":1391,"id":"465f9d0f891","latitude":59.3631630553196,"longitude":18.0597352031505},{"appear_time":3346,"disappear_time":1546,"id":"465f9d03705","latitude":59.3696373900896,"longitude":18.0639062878892},{"appear_time":2657,"disappear_time":857,"id":"465f9d02d51","latitude":59.3711556092024,"longitude":18.0689042874402},{"appear_time":2100,"disappear_time":300,"id":"465f9da9dfd","latitude":59.3696159721179,"longitude":18.0471307541299},{"appear_time":2341,"disappear_time":541,"id":"465f9d05f7b","latitude":59.3641864752351,"longitude":18.0551791244185},{"appear_time":3502,"disappear_time":1702,"id":"465f9d03ebb","latitude":59.3704944601301,"longitude":18.0605146255808},{"appear_time":1005,"disappear_time":2805,"id":"465f9d0f79f","latitude":59.3630340860794,"longitude":18.0573835759068},{"appear_time":2227,"disappear_time":427,"id":"465f9d06bc3","latitude":59.3687443800052,"longitude":18.0551842297623},{"appear_time":2221,"disappear_time":421,"id":"465f9d1aef5","latitude":59.3644746217312,"longitude":18.0674786632053},{"appear_time":1360,"disappear_time":3160,"id":"465f9d0fff3","latitude":59.3628723112119,"longitude":18.0624192868856},{"appear_time":367,"disappear_time":2167,"id":"465f9d03647","latitude":59.3691336049027,"longitude":18.0641761751514},{"appear_time":3183,"disappear_time":1383,"id":"465f9d0ec8f","latitude":59.3602964575494,"longitude":18.0518040266848},{"appear_time":1037,"disappear_time":2837,"id":"465f9d0ff01","latitude":59.362471897187,"longitude":18.061315830455},{"appear_time":3338,"disappear_time":1538,"id":"465f9d04521","latitude":59.3667333953949,"longitude":18.0594900013657},{"appear_time":2092,"disappear_time":292,"id":"465f9d033df","latitude":59.3703541004569,"longitude":18.0660512729199},{"appear_time":2028,"disappear_time":228,"id":"465f9d0e29d","latitude":59.3597826267716,"longitude":18.0606047748682},{"appear_time":2468,"disappear_time":668,"id":"465f9d1a803","latitude":59.3623322966841,"longitude":18.0674962014216},{"appear_time":914,"disappear_time":2714,"id":"465f9d05341","latitude":59.3646381990871,"longitude":18.063732804115},{"appear_time":1230,"disappear_time":3030,"id":"465f9d015c3","latitude":59.3708692896953,"longitude":18.0578924434118},{"appear_time":384,"disappear_time":2184,"id":"465f9d1b327","latitude":59.3662791098216,"longitude":18.0659204313828},{"appear_time":872,"disappear_time":2672,"id":"465f9d03dcd","latitude":59.3710398940931,"longitude":18.0599533150803},{"appear_time":2546,"disappear_time":746,"id":"465f9d0f279","latitude":59.3614113449808,"longitude":18.0531160331333},{"appear_time":521,"disappear_time":2321,"id":"465f9d0fee3","latitude":59.3624294551132,"longitude":18.0609620132909},{"appear_time":2317,"disappear_time":517,"id":"465f9d00da7","latitude":59.3711358138228,"longitude":18.0527724511449},{"appear_time":107,"disappear_time":1907,"id":"465f9d10281","latitude":59.3608549576428,"longitude":18.0615633729316},{"appear_time":53,"disappear_time":1853,"id":"465f9d10705","latitude":59.3619103413631,"longitude":18.0658931789304},{"appear_time":2759,"disappear_time":959,"id":"465f9d05a81","latitude":59.3656626020651,"longitude":18.0598216339516},{"appear_time":2559,"disappear_time":759,"id":"465f9d05a83","latitude":59.3657466953304,"longitude":18.0598841752913},{"appear_time":1396,"disappear_time":3196,"id":"465f9d0fe05","latitude":59.3617374972405,"longitude":18.0618975049297},{"appear_time":1442,"disappear_time":3242,"id":"465f9d057ab","latitude":59.364066441815,"longitude":18.0599236498034},{"appear_time":659,"disappear_time":2459,"id":"465f9d01545","latitude":59.3699025698738,"longitude":18.0574958266487},{"appear_time":2931,"disappear_time":1131,"id":"465f9d050a9","latitude":59.3650531271182,"longitude":18.0595295043937},{"appear_time":2536,"disappear_time":736,"id":"465f9d00dab","latitude":59.3711774445568,"longitude":18.0524811003514},{"appear_time":468,"disappear_time":2268,"id":"465f9d0f203","latitude":59.361370556074,"longitude":18.0540523229787},{"appear_time":1875,"disappear_time":75,"id":"465f9d05cbf","latitude":59.3663945916783,"longitude":18.057304354291},{"appear_time":2238,"disappear_time":438,"id":"465f9d051d9","latitude":59.366022180147,"longitude":18.0618616481552},{"appear_time":3139,"disappear_time":1339,"id":"465f9d05b2d","latitude":59.3664386637682,"longitude":18.0589485236642},{"appear_time":2439,"disappear_time":639,"id":"465f9d030bd","latitude":59.370561646904,"longitude":18.0639492016821},{"appear_time":2950,"disappear_time":1150,"id":"465f9d03465","latitude":59.3696404575392,"longitude":18.0664873515438},{"appear_time":2730,"disappear_time":930,"id":"465f9d032d5","latitude":59.3703779522351,"longitude":18.0684867624934},{"appear_time":2594,"disappear_time":794,"id":"465f9d0ffbb","latitude":59.3625776030678,"longitude":18.061877831212},{"appear_time":2968,"disappear_time":1168,"id":"465f9d03987","latitude":59.3704127301699,"longitude":18.0623878581871},{"appear_time":3323,"disappear_time":1523,"id":"465f9d0edff","latitude":59.3612023682422,"longitude":18.0539272933272},{"appear_time":507,"disappear_time":2307,"id":"465f9d013b1","latitude":59.3709917594473,"longitude":18.0550826489335},{"appear_time":281,"disappear_time":2081,"id":"465f9d0391b","latitude":59.3699914689199,"longitude":18.0614298201361},{"appear_time":1627,"disappear_time":3427,"id":"465f9d069ad","latitude":59.3677993108105,"longitude":18.0552872373745},{"appear_time":603,"disappear_time":2403,"id":"465f9d03bb7","latitude":59.3708956895837,"longitude":18.0622636119991},{"appear_time":94,"disappear_time":1894,"id":"465f9d0578f","latitude":59.364023190673,"longitude":18.0589247040194},{"appear_time":2921,"disappear_time":1121,"id":"465f9d056b3","latitude":59.3646142331326,"longitude":18.0612978654576},{"appear_time":1813,"disappear_time":13,"id":"465f9d1ac77","latitude":59.3640943218175,"longitude":18.0655842360715},{"appear_time":2834,"disappear_time":1034,"id":"465f9d06607","latitude":59.3671456801217,"longitude":18.0533510439668},{"appear_time":1227,"disappear_time":1227,"id":"465f9d1ac79","latitude":59.3641151520985,"longitude":18.0654385871475},{"appear_time":971,"disappear_time":2771,"id":"465f9d06601","latitude":59.3672297784745,"longitude":18.0534135669004},{"appear_time":2445,"disappear_time":645,"id":"465f9d06765","latitude":59.3660973784128,"longitude":18.0548274897923},{"appear_time":1558,"disappear_time":3358,"id":"465f9d089b3","latitude":59.3642846367634,"longitude":18.0499353202882},{"appear_time":2206,"disappear_time":406,"id":"465f9d0f58b","latitude":59.3639766515162,"longitude":18.0553453632306},{"appear_time":3439,"disappear_time":1639,"id":"465f9d03bbb","latitude":59.3710006128627,"longitude":18.0621804902279},{"appear_time":2736,"disappear_time":936,"id":"465f9d06181","latitude":59.3652114231042,"longitude":18.0519131119603},{"appear_time":1407,"disappear_time":3207,"id":"465f9d05e3f","latitude":59.3651523312477,"longitude":18.0549304900359},{"appear_time":3239,"disappear_time":1439,"id":"465f9d05869","latitude":59.3640007505909,"longitude":18.0577801252899},{"appear_time":1551,"disappear_time":3351,"id":"465f9d105d7","latitude":59.3610069855592,"longitude":18.0657045550706},{"appear_time":3,"disappear_time":1803,"id":"465f9d0ffb5","latitude":59.3623885984584,"longitude":18.0618983855456},{"appear_time":1358,"disappear_time":3158,"id":"465f9d0ffb9","latitude":59.362556777896,"longitude":18.0620234708283},{"appear_time":994,"disappear_time":2794,"id":"465f9d03911","latitude":59.3700755641473,"longitude":18.0614923740736},{"appear_time":3256,"disappear_time":1456,"id":"465f9d0f7cd","latitude":59.363537829102,"longitude":18.0571136580993},{"appear_time":329,"disappear_time":2129,"id":"465f9d0146b","latitude":59.370867663592,"longitude":18.0566019472357},{"appear_time":1384,"disappear_time":3184,"id":"465f9d012af","latitude":59.3704013959217,"longitude":18.053354471555},{"appear_time":2461,"disappear_time":661,"id":"465f9d039c7","latitude":59.3699297727262,"longitude":18.0625120997865},{"appear_time":2981,"disappear_time":1181,"id":"465f9d1b5c3","latitude":59.3676476410449,"longitude":18.0687115156246},{"appear_time":1869,"disappear_time":69,"id":"465f9d06507","latitude":59.3669125130049,"longitude":18.0517275433385},{"appear_time":3544,"disappear_time":1744,"id":"465f9d0783b","latitude":59.367956458778,"longitude":18.0470252864843},{"appear_time":887,"disappear_time":2687,"id":"465f9d050cf","latitude":59.3649490113105,"longitude":18.0602577547853},{"appear_time":2804,"disappear_time":1004,"id":"465f9d0f613","latitude":59.363578646233,"longitude":18.0561772824399},{"appear_time":3509,"disappear_time":1709,"id":"465f9d0fea7","latitude":59.3619032917923,"longitude":18.0600873402507},{"appear_time":797,"disappear_time":797,"id":"465f9d0f24b","latitude":59.3619583789396,"longitude":18.053844891542},{"appear_time":60,"disappear_time":1860,"id":"465f9da9e35","latitude":59.3703304210702,"longitude":18.0473394829771},{"appear_time":188,"disappear_time":1988,"id":"465f9d00cc5","latitude":59.370735277737,"longitude":18.0516689271238},{"appear_time":1027,"disappear_time":2827,"id":"465f9d1af93","latitude":59.364623464343,"longitude":18.0690398025729},{"appear_time":3592,"disappear_time":3592,"id":"465f9d0f927","latitude":59.3625960398675,"longitude":18.0597969054186},{"appear_time":2836,"disappear_time":1036,"id":"465f9d086e1","latitude":59.364448495654,"longitude":18.0468350013643},{"appear_time":1960,"disappear_time":160,"id":"465f9d0313b","latitude":59.3703109073274,"longitude":18.0650520656766},{"appear_time":599,"disappear_time":2399,"id":"465f9d0efc3","latitude":59.3607843986275,"longitude":18.0555497970973},{"appear_time":2780,"disappear_time":980,"id":"465f9d09325","latitude":59.3608201333533,"longitude":18.0507434289249},{"appear_time":256,"disappear_time":2056,"id":"465f9d01255","latitude":59.3708651959844,"longitude":18.0546662295177},{"appear_time":2186,"disappear_time":386,"id":"465f9d03117","latitude":59.3704790936823,"longitude":18.0651771984327},{"appear_time":1324,"disappear_time":3124,"id":"465f9d00d09","latitude":59.3710517123842,"longitude":18.0527099236169},{"appear_time":597,"disappear_time":2397,"id":"465f9d0643b","latitude":59.366451237631,"longitude":18.052351394808},{"appear_time":1473,"disappear_time":3273,"id":"465f9d0541f","latitude":59.3642994838277,"longitude":18.0615471775926},{"appear_time":3295,"disappear_time":1495,"id":"465f9d0373b","latitude":59.3699945939787,"longitude":18.0640108591827},{"appear_time":2186,"disappear_time":386,"id":"465f9d0373d","latitude":59.3699105003911,"longitude":18.0639482972337},{"appear_time":2928,"disappear_time":1128,"id":"465f9d0373f","latitude":59.3699313301726,"longitude":18.0638026214817},{"appear_time":2608,"disappear_time":808,"id":"465f9d05fef","latitude":59.3644162838104,"longitude":18.0542221396979},{"appear_time":968,"disappear_time":2768,"id":"465f9d059c7","latitude":59.3645477627685,"longitude":18.0585091501604},{"appear_time":1145,"disappear_time":2945,"id":"465f9d0f7ff","latitude":59.363560276427,"longitude":18.0582582128922},{"appear_time":1078,"disappear_time":2878,"id":"465f9d03415","latitude":59.3696188639923,"longitude":18.0659877558184},{"appear_time":648,"disappear_time":2448,"id":"465f9d0335d","latitude":59.3698518202079,"longitude":18.067611697745},{"appear_time":2936,"disappear_time":1136,"id":"465f9d0ee47","latitude":59.3607411064765,"longitude":18.0545509992938},{"appear_time":409,"disappear_time":2209,"id":"465f9d0ee41","latitude":59.3607619213269,"longitude":18.0544053724861},{"appear_time":1782,"disappear_time":3582,"id":"465f9d09241","latitude":59.3614278987437,"longitude":18.0497453050147},{"appear_time":2382,"disappear_time":582,"id":"465f9d0f78d","latitude":59.3632447254863,"longitude":18.0578624450203},{"appear_time":3273,"disappear_time":1473,"id":"465f9d1b2db","latitude":59.3661109301712,"longitude":18.0657953081679},{"appear_time":500,"disappear_time":2300,"id":"465f9d1ac31","latitude":59.364536359612,"longitude":18.0663965396056},{"appear_time":2053,"disappear_time":253,"id":"465f9d04329","latitude":59.366898349886,"longitude":18.0570343999705},{"appear_time":954,"disappear_time":2754,"id":"465f9d0f817","latitude":59.3632455364242,"longitude":18.0585075397898},{"appear_time":2039,"disappear_time":239,"id":"465f9d107f9","latitude":59.3622482105529,"longitude":18.0674336412848},{"appear_time":2070,"disappear_time":270,"id":"465f9d0f811","latitude":59.3633296288551,"longitude":18.0585700727503},{"appear_time":2302,"disappear_time":502,"id":"465f9d10521","latitude":59.3600187789,"longitude":18.064808323935},{"appear_time":1819,"disappear_time":19,"id":"465f9d107f5","latitude":59.3622898747383,"longitude":18.0671423589686},{"appear_time":494,"disappear_time":2294,"id":"465f9d06723","latitude":59.3660332657992,"longitude":18.0539741806623},{"appear_time":2,"disappear_time":1802,"id":"465f9d0573b","latitude":59.3646126414916,"longitude":18.0600075921155},{"appear_time":621,"disappear_time":2421,"id":"465f9d0f8cd","latitude":59.3628066677318,"longitude":18.0602757942187},{"appear_time":143,"disappear_time":1943,"id":"465f9d0f787","latitude":59.3630557199905,"longitude":18.0578830240092},{"appear_time":694,"disappear_time":2494,"id":"465f9d06c55","latitude":59.3694146811817,"longitude":18.0537488799782},{"appear_time":1010,"disappear_time":2810,"id":"465f9d03381","latitude":59.3698718994682,"longitude":18.0668207388559},{"appear_time":2972,"disappear_time":1172,"id":"465f9d0883d","latitude":59.3646201717664,"longitude":18.0495402724353},{"appear_time":2130,"disappear_time":330,"id":"465f9d1b453","latitude":59.3673946238446,"longitude":18.0678785615513},{"appear_time":1082,"disappear_time":2882,"id":"465f9d0f7f9","latitude":59.3634761836414,"longitude":18.0581956805469},{"appear_time":916,"disappear_time":2716,"id":"465f9d1b451","latitude":59.3673105344758,"longitude":18.0678159915292},{"appear_time":189,"disappear_time":1989,"id":"465f9d09335","latitude":59.3606103222339,"longitude":18.0509096709008},{"appear_time":502,"disappear_time":2302,"id":"465f9d05eb7","latitude":59.3650074312705,"longitude":18.0565951468196},{"appear_time":1770,"disappear_time":3570,"id":"465f9d07c5d","latitude":59.3660888947445,"longitude":18.0483763096836},{"appear_time":3051,"disappear_time":1251,"id":"465f9d04d17","latitude":59.3661726536473,"longitude":18.0647131391433},{"appear_time":3355,"disappear_time":1555,"id":"465f9d092a5","latitude":59.3614928990349,"longitude":18.0512434681955},{"appear_time":1374,"disappear_time":3174,"id":"465f9d06d59","latitude":59.370085809351,"longitude":18.052958690536},{"appear_time":1621,"disappear_time":3421,"id":"465f9d0f719","latitude":59.3627601701202,"longitude":18.0566965507454},{"appear_time":1727,"disappear_time":3527,"id":"465f9d0f6dd","latitude":59.3627385307435,"longitude":18.0561971131923},{"appear_time":245,"disappear_time":2045,"id":"465f9d055ef","latitude":59.3634169238878,"longitude":18.0612130372209},{"appear_time":2764,"disappear_time":964,"id":"465f9d0139f","latitude":59.3707611038617,"longitude":18.0553946049905},{"appear_time":520,"disappear_time":2320,"id":"465f9d06bd7","latitude":59.3685345474354,"longitude":18.0553504964539},{"appear_time":1284,"disappear_time":3084,"id":"465f9d093ab","latitude":59.361029086111,"longitude":18.0499321793365},{"appear_time":233,"disappear_time":233,"id":"465f9d036bf","latitude":59.3697646867319,"longitude":18.0649680269793},{"appear_time":457,"disappear_time":2257,"id":"465f9d030af","latitude":59.370414288646,"longitude":18.0636783986051},{"appear_time":3464,"disappear_time":1664,"id":"465f9d05451","latitude":59.3639222579809,"longitude":18.0622334236182},{"appear_time":104,"disappear_time":1904,"id":"465f9d11d27","latitude":59.3598683036223,"longitude":18.0619573920257},{"appear_time":3470,"disappear_time":1670,"id":"465f9d1afa9","latitude":59.3644545416783,"longitude":18.0682694881352},{"appear_time":1014,"disappear_time":2814,"id":"465f9d0f287","latitude":59.3615370658816,"longitude":18.0528872862184},{"appear_time":826,"disappear_time":2626,"id":"465f9d0fe8f","latitude":59.3619881803589,"longitude":18.0607949571599},{"appear_time":1776,"disappear_time":3576,"id":"465f9d0fa07","latitude":59.3621098826845,"longitude":18.0573408449485},{"appear_time":1066,"disappear_time":2866,"id":"465f9d038db","latitude":59.3698016613352,"longitude":18.0608051400482},{"appear_time":3207,"disappear_time":1407,"id":"465f9d1afa5","latitude":59.3645177946009,"longitude":18.0684777072941},{"appear_time":3286,"disappear_time":1486,"id":"465f9d1b609","latitude":59.3677533112114,"longitude":18.0692736682744},{"appear_time":275,"disappear_time":2075,"id":"465f9d1a81b","latitude":59.362437215231,"longitude":18.0674131198843},{"appear_time":3114,"disappear_time":1314,"id":"465f9d03c03","latitude":59.3707259226874,"longitude":18.0608479600439},{"appear_time":1929,"disappear_time":129,"id":"465f9d04b09","latitude":59.3675805981924,"longitude":18.0652771132643},{"appear_time":2293,"disappear_time":493,"id":"465f9d0585f","latitude":59.3641264840481,"longitude":18.0575513680095},{"appear_time":720,"disappear_time":2520,"id":"465f9d0607f","latitude":59.3648992110566,"longitude":18.0540978095886},{"appear_time":3318,"disappear_time":1518,"id":"465f9d0451b","latitude":59.3668807604056,"longitude":18.0597607448795},{"appear_time":491,"disappear_time":2291,"id":"465f9d038c1","latitude":59.3696126448122,"longitude":18.0608257105005},{"appear_time":1295,"disappear_time":3095,"id":"465f9d030a9","latitude":59.3704351182159,"longitude":18.0635327206001},{"appear_time":1221,"disappear_time":3021,"id":"465f9d036b9","latitude":59.3698487795779,"longitude":18.065030591979},{"appear_time":942,"disappear_time":2742,"id":"465f9d037b3","latitude":59.369280187157,"longitude":18.0638017186286},{"appear_time":3314,"disappear_time":1514,"id":"465f9d0fa03","latitude":59.362173155878,"longitude":18.0575490074967},{"appear_time":2156,"disappear_time":356,"id":"465f9d037b5","latitude":59.3691960939284,"longitude":18.0637391585768},{"appear_time":2166,"disappear_time":366,"id":"465f9d06eeb","latitude":59.3683430406242,"longitude":18.053435557182},{"appear_time":1732,"disappear_time":3532,"id":"465f9d0445d","latitude":59.3673212544781,"longitude":18.059282616063}],"timestamp":1506188090614}
